{
    "Afghanistan": {"lat": 34.5553, "lon": 69.2075, "name": "Afghanistan"},
    "Albania": {"lat": 41.3275, "lon": 19.8187, "name": "Albania"},
    "Algeria": {"lat": 36.7538, "lon": 3.0588, "name": "Algeria"},
    "Andorra": {"lat": 42.5063, "lon": 1.5218, "name": "Andorra"},
    "Angola": {"lat": -8.8383, "lon": 13.2344, "name": "Angola"},
    "Argentina": {"lat": -34.6037, "lon": -58.3816, "name": "Argentina"},
    "Armenia": {"lat": 40.1792, "lon": 44.4991, "name": "Armenia"},
    "Australia": {"lat": -35.2809, "lon": 149.1300, "name": "Australia"},
    "Austria": {"lat": 48.2082, "lon": 16.3738, "name": "Austria"},
    "Bahamas": {"lat": 25.0343, "lon": -77.3963, "name": "Bahamas"},
    "Bangladesh": {"lat": 23.8103, "lon": 90.4125, "name": "Bangladesh"},
    "Barbados": {"lat": 13.1939, "lon": -59.5432, "name": "Barbados"},
    "Belgium": {"lat": 50.8503, "lon": 4.3517, "name": "Belgium"},
    "Benin": {"lat": 6.4969, "lon": 2.6289, "name": "Benin"},
    "Bolivia, Plurinational State of": {"lat": -16.5000, "lon": -68.1500, "name": "Bolivia"},
    "Bosnia and Herzegovina": {"lat": 43.8563, "lon": 18.4131, "name": "Bosnia and Herzegovina"},
    "Brazil": {"lat": -15.8267, "lon": -47.9218, "name": "Brazil"},
    "Bulgaria": {"lat": 42.6977, "lon": 23.3219, "name": "Bulgaria"},
    "Cabo Verde": {"lat": 14.9167, "lon": -23.5167, "name": "Cabo Verde"},
    "Cambodia": {"lat": 11.5564, "lon": 104.9282, "name": "Cambodia"},
    "Cameroon": {"lat": 3.8480, "lon": 11.5021, "name": "Cameroon"},
    "Canada": {"lat": 45.4215, "lon": -75.6972, "name": "Canada"},
    "Chile": {"lat": -33.4489, "lon": -70.6693, "name": "Chile"},
    "China": {"lat": 39.9042, "lon": 116.4074, "name": "China"},
    "Colombia": {"lat": 4.7110, "lon": -74.0721, "name": "Colombia"},
    "Congo": {"lat": -4.2634, "lon": 15.2429, "name": "Congo"},
    "Costa Rica": {"lat": 9.9281, "lon": -84.0907, "name": "Costa Rica"},
    "Croatia": {"lat": 45.8150, "lon": 15.9819, "name": "Croatia"},
    "Cuba": {"lat": 23.1136, "lon": -82.3666, "name": "Cuba"},
    "Cyprus": {"lat": 35.1856, "lon": 33.3823, "name": "Cyprus"},
    "Czech Republic": {"lat": 50.0755, "lon": 14.4378, "name": "Czech Republic"},
    "Côte d'Ivoire": {"lat": 6.8270, "lon": -5.2893, "name": "Côte d'Ivoire"},
    "Denmark": {"lat": 55.6761, "lon": 12.5683, "name": "Denmark"},
    "Dominica": {"lat": 15.3092, "lon": -61.3790, "name": "Dominica"},
    "Dominican Republic": {"lat": 18.4861, "lon": -69.9312, "name": "Dominican Republic"},
    "Ecuador": {"lat": -0.1807, "lon": -78.4678, "name": "Ecuador"},
    "Egypt": {"lat": 30.0444, "lon": 31.2357, "name": "Egypt"},
    "El Salvador": {"lat": 13.6929, "lon": -89.2182, "name": "El Salvador"},
    "Estonia": {"lat": 59.4370, "lon": 24.7536, "name": "Estonia"},
    "Ethiopia": {"lat": 9.0320, "lon": 38.7469, "name": "Ethiopia"},
    "Finland": {"lat": 60.1699, "lon": 24.9384, "name": "Finland"},
    "France": {"lat": 48.8566, "lon": 2.3522, "name": "France"},
    "Gabon": {"lat": 0.4162, "lon": 9.4673, "name": "Gabon"},
    "Gambia": {"lat": 13.4549, "lon": -16.5790, "name": "Gambia"},
    "Germany": {"lat": 52.5200, "lon": 13.4050, "name": "Germany"},
    "Ghana": {"lat": 5.6037, "lon": -0.1870, "name": "Ghana"},
    "Greece": {"lat": 37.9838, "lon": 23.7275, "name": "Greece"},
    "Guatemala": {"lat": 14.6349, "lon": -90.5069, "name": "Guatemala"},
    "Guinea": {"lat": 9.6412, "lon": -13.5784, "name": "Guinea"},
    "Guinea-Bissau": {"lat": 11.8636, "lon": -15.5984, "name": "Guinea-Bissau"},
    "Guyana": {"lat": 6.8013, "lon": -58.1551, "name": "Guyana"},
    "Haiti": {"lat": 18.5944, "lon": -72.3074, "name": "Haiti"},
    "Honduras": {"lat": 14.0723, "lon": -87.1921, "name": "Honduras"},
    "Hong Kong": {"lat": 22.3193, "lon": 114.1694, "name": "Hong Kong"},
    "Hungary": {"lat": 47.4979, "lon": 19.0402, "name": "Hungary"},
    "India": {"lat": 28.6139, "lon": 77.2090, "name": "India"},
    "Ireland": {"lat": 53.3498, "lon": -6.2603, "name": "Ireland"},
    "Israel": {"lat": 31.7683, "lon": 35.2137, "name": "Israel"},
    "Italy": {"lat": 41.9028, "lon": 12.4964, "name": "Italy"},
    "Jamaica": {"lat": 18.0179, "lon": -76.8099, "name": "Jamaica"},
    "Jordan": {"lat": 31.9454, "lon": 35.9284, "name": "Jordan"},
    "Kazakhstan": {"lat": 51.1694, "lon": 71.4491, "name": "Kazakhstan"},
    "Kenya": {"lat": -1.2864, "lon": 36.8172, "name": "Kenya"},
    "Korea, Republic of": {"lat": 37.5665, "lon": 126.9780, "name": "South Korea"},
    "Kuwait": {"lat": 29.3759, "lon": 47.9774, "name": "Kuwait"},
    "Latvia": {"lat": 56.9496, "lon": 24.1052, "name": "Latvia"},
    "Liberia": {"lat": 6.3156, "lon": -10.8074, "name": "Liberia"},
    "Libyan Arab Jamahiriya": {"lat": 32.8872, "lon": 13.1913, "name": "Libya"},
    "Lithuania": {"lat": 54.6872, "lon": 25.2797, "name": "Lithuania"},
    "Luxembourg": {"lat": 49.6116, "lon": 6.1319, "name": "Luxembourg"},
    "Macau, SAR of China": {"lat": 22.1987, "lon": 113.5439, "name": "Macau"},
    "Madagascar": {"lat": -18.8792, "lon": 47.5079, "name": "Madagascar"},
    "Malaysia": {"lat": 3.1390, "lon": 101.6869, "name": "Malaysia"},
    "Mali": {"lat": 12.6392, "lon": -8.0029, "name": "Mali"},
    "Malta": {"lat": 35.8989, "lon": 14.5146, "name": "Malta"},
    "Martinique": {"lat": 14.6415, "lon": -61.0242, "name": "Martinique"},
    "Mexico": {"lat": 19.4326, "lon": -99.1332, "name": "Mexico"},
    "Monaco": {"lat": 43.7384, "lon": 7.4246, "name": "Monaco"},
    "Mongolia": {"lat": 47.8864, "lon": 106.9057, "name": "Mongolia"},
    "Morocco": {"lat": 33.9716, "lon": -6.8498, "name": "Morocco"},
    "Mozambique": {"lat": -25.9692, "lon": 32.5732, "name": "Mozambique"},
    "Netherlands": {"lat": 52.3676, "lon": 4.9041, "name": "Netherlands"},
    "Netherlands Antilles": {"lat": 12.1224, "lon": -68.8824, "name": "Netherlands Antilles"},
    "Nicaragua": {"lat": 12.1150, "lon": -86.2362, "name": "Nicaragua"},
    "Niger": {"lat": 13.5127, "lon": 2.1128, "name": "Niger"},
    "Nigeria": {"lat": 9.0765, "lon": 7.3986, "name": "Nigeria"},
    "Norway": {"lat": 59.9139, "lon": 10.7522, "name": "Norway"},
    "Other": {"lat": 0, "lon": 0, "name": "Other"},
    "Pakistan": {"lat": 33.6844, "lon": 73.0479, "name": "Pakistan"},
    "Panama": {"lat": 8.9824, "lon": -79.5199, "name": "Panama"},
    "Papua New Guinea": {"lat": -9.4438, "lon": 147.1803, "name": "Papua New Guinea"},
    "Paraguay": {"lat": -25.2637, "lon": -57.5759, "name": "Paraguay"},
    "Peru": {"lat": -12.0464, "lon": -77.0428, "name": "Peru"},
    "Philippines": {"lat": 14.5995, "lon": 120.9842, "name": "Philippines"},
    "Poland": {"lat": 52.2297, "lon": 21.0122, "name": "Poland"},
    "Portugal": {"lat": 38.7223, "lon": -9.1393, "name": "Portugal"},
    "Qatar": {"lat": 25.2854, "lon": 51.5310, "name": "Qatar"},
    "Romania": {"lat": 44.4268, "lon": 26.1025, "name": "Romania"},
    "Russian Federation": {"lat": 55.7558, "lon": 37.6173, "name": "Russia"},
    "Saint Lucia": {"lat": 13.9094, "lon": -60.9789, "name": "Saint Lucia"},
    "Saint Pierre and Miquelon": {"lat": 46.7811, "lon": -56.1764, "name": "Saint Pierre and Miquelon"},
    "Sao Tome and Principe": {"lat": 0.3302, "lon": 6.7333, "name": "Sao Tome and Principe"},
    "Saudi Arabia": {"lat": 24.7136, "lon": 46.6753, "name": "Saudi Arabia"},
    "Senegal": {"lat": 14.6928, "lon": -17.4467, "name": "Senegal"},
    "Serbia": {"lat": 44.7866, "lon": 20.4489, "name": "Serbia"},
    "Sierra Leone": {"lat": 8.4657, "lon": -13.2317, "name": "Sierra Leone"},
    "Singapore": {"lat": 1.3521, "lon": 103.8198, "name": "Singapore"},
    "Slovakia": {"lat": 48.1486, "lon": 17.1077, "name": "Slovakia"},
    "Slovenia": {"lat": 46.0569, "lon": 14.5058, "name": "Slovenia"},
    "South Africa": {"lat": -25.7479, "lon": 28.2293, "name": "South Africa"},
    "Spain": {"lat": 40.4168, "lon": -3.7038, "name": "Spain"},
    "Suriname": {"lat": 5.8520, "lon": -55.2038, "name": "Suriname"},
    "Sweden": {"lat": 59.3293, "lon": 18.0686, "name": "Sweden"},
    "Switzerland": {"lat": 46.9480, "lon": 7.4474, "name": "Switzerland"},
    "Tanzania, United Republic of": {"lat": -6.7924, "lon": 39.2083, "name": "Tanzania"},
    "Thailand": {"lat": 13.7563, "lon": 100.5018, "name": "Thailand"},
    "Togo": {"lat": 6.1256, "lon": 1.2218, "name": "Togo"},
    "Trinidad and Tobago": {"lat": 10.6918, "lon": -61.2225, "name": "Trinidad and Tobago"},
    "Turkey": {"lat": 39.9334, "lon": 32.8597, "name": "Turkey"},
    "Uganda": {"lat": 0.3476, "lon": 32.5825, "name": "Uganda"},
    "Ukraine": {"lat": 50.4501, "lon": 30.5234, "name": "Ukraine"},
    "United Arab Emirates": {"lat": 24.4539, "lon": 54.3773, "name": "United Arab Emirates"},
    "United Kingdom": {"lat": 51.5074, "lon": -0.1278, "name": "United Kingdom"},
    "United Kingdom (England and Wales)": {"lat": 51.5074, "lon": -0.1278, "name": "United Kingdom"},
    "United States": {"lat": 38.9072, "lon": -77.0369, "name": "United States"},
    "Uruguay": {"lat": -34.9011, "lon": -56.1645, "name": "Uruguay"},
    "Venezuela, Bolivarian Republic of": {"lat": 10.4806, "lon": -66.9036, "name": "Venezuela"},
    "Viet Nam": {"lat": 21.0285, "lon": 105.8542, "name": "Vietnam"},
    "Yemen": {"lat": 15.5527, "lon": 48.5164, "name": "Yemen"},
    "Zambia": {"lat": -15.3875, "lon": 28.3228, "name": "Zambia"}
  }